{"last_updated":1763467064,"ttl":60,"version":"2.3","data":{"stations":[{"station_id":"68577704","name":"Julius-Raab-Platz","short_name":"32000","lat":48.211544,"lon":16.382374,"region_id":"at:49:748","capacity":17},{"station_id":"68577989","name":"Hoher Markt","short_name":"32001","lat":48.210666,"lon":16.372983,"region_id":"at:49:748","capacity":25},{"station_id":"68578292","name":"Oper","short_name":"32002","lat":48.202683,"lon":16.369702,"region_id":"at:49:748","capacity":21},{"station_id":"68578979","name":"Volksgarten","short_name":"32003","lat":48.206516,"lon":16.3604,"region_id":"at:49:748","capacity":15},{"station_id":"68579304","name":"Stephansplatz U","short_name":"32062","lat":48.207836,"lon":16.372111,"region_id":"at:49:748","capacity":22},{"station_id":"68579972","name":"Taborstraße U","short_name":"32004","lat":48.219522,"lon":16.382218,"region_id":"at:49:748","capacity":23},{"station_id":"68580182","name":"WU-Campus / Südportalstraße ","short_name":"32005","lat":48.212856,"lon":16.407665,"region_id":"at:49:748","capacity":35},{"station_id":"68580553","name":"Radetzkyplatz","short_name":"32006","lat":48.210682,"lon":16.390221,"region_id":"at:49:748","capacity":26},{"station_id":"68580955","name":"Erdberg U","short_name":"32008","lat":48.190465,"lon":16.415318,"region_id":"at:49:748","capacity":36},{"station_id":"68581183","name":"Media Quarter Marx","short_name":"32009","lat":48.188763,"lon":16.404503,"region_id":"at:49:748","capacity":24},{"station_id":"68582032","name":"Rennweg S","short_name":"32010","lat":48.194261,"lon":16.386578,"region_id":"at:49:748","capacity":9},{"station_id":"68582393","name":"Rochusmarkt","short_name":"32011","lat":48.203416,"lon":16.389789,"region_id":"at:49:748","capacity":16},{"station_id":"68582598","name":"Schwarzenbergplatz","short_name":"32012","lat":48.198852,"lon":16.376962,"region_id":"at:49:748","capacity":20},{"station_id":"68582758","name":"Heumühlgasse","short_name":"32013","lat":48.195304,"lon":16.363308,"region_id":"at:49:748","capacity":18},{"station_id":"68583064","name":"Margaretengürtel U","short_name":"32014","lat":48.188489,"lon":16.343992,"region_id":"at:49:748","capacity":30},{"station_id":"68583190","name":"Mittersteig","short_name":"32015","lat":48.189735,"lon":16.361331,"region_id":"at:49:748","capacity":23},{"station_id":"68583368","name":"Ceija-Stojka-Platz","short_name":"32016","lat":48.207702,"lon":16.342199,"region_id":"at:49:748","capacity":11},{"station_id":"68583487","name":"Volkstheater U","short_name":"32017","lat":48.205994,"lon":16.356442,"region_id":"at:49:748","capacity":18},{"station_id":"68583665","name":"Zieglergasse U","short_name":"32018","lat":48.196724,"lon":16.343985,"region_id":"at:49:748","capacity":14},{"station_id":"68583873","name":"Oskar-Morgenstern-Platz","short_name":"32019","lat":48.219182,"lon":16.366349,"region_id":"at:49:748","capacity":38},{"station_id":"68584195","name":"Frankhplatz","short_name":"32020","lat":48.215164,"lon":16.355172,"region_id":"at:49:748","capacity":21},{"station_id":"68584504","name":"Friedensbrücke U","short_name":"32021","lat":48.226825,"lon":16.365311,"region_id":"at:49:748","capacity":19},{"station_id":"68584898","name":"Spittelau S U","short_name":"32022","lat":48.235289,"lon":16.35875,"region_id":"at:49:748","capacity":19},{"station_id":"68585081","name":"Absbergbrücke ","short_name":"32023","lat":48.167276,"lon":16.386339,"region_id":"at:49:748","capacity":24},{"station_id":"68586340","name":"Altes Landgut U","short_name":"32024","lat":48.160985,"lon":16.383653,"region_id":"at:49:748","capacity":30},{"station_id":"68586628","name":"Bloch-Bauer-Promenade","short_name":"32025","lat":48.179521,"lon":16.385926,"region_id":"at:49:748","capacity":6},{"station_id":"68586882","name":"Hauptbahnhof S U ","short_name":"32026","lat":48.186287,"lon":16.375631,"region_id":"at:49:748","capacity":54},{"station_id":"68587431","name":"Keplerplatz U","short_name":"32027","lat":48.179192,"lon":16.375793,"region_id":"at:49:748","capacity":16},{"station_id":"68587603","name":"Puchsbaumgasse","short_name":"32028","lat":48.172123,"lon":16.389296,"region_id":"at:49:748","capacity":13},{"station_id":"68587889","name":"Enkplatz U","short_name":"32029","lat":48.17625,"lon":16.41326,"region_id":"at:49:748","capacity":16},{"station_id":"68588081","name":"Gasometer U","short_name":"32030","lat":48.185253,"lon":16.417358,"region_id":"at:49:748","capacity":16},{"station_id":"68588324","name":"Geiselbergstraße S","short_name":"32031","lat":48.174951,"lon":16.406785,"region_id":"at:49:748","capacity":16},{"station_id":"68588588","name":"Simmering S U","short_name":"32032","lat":48.169601,"lon":16.420754,"region_id":"at:49:748","capacity":16},{"station_id":"68588759","name":"Niederhofstraße U","short_name":"32034","lat":48.180233,"lon":16.330812,"region_id":"at:49:748","capacity":14},{"station_id":"68589011","name":"Hietzing U","short_name":"32035","lat":48.187845,"lon":16.302445,"region_id":"at:49:748","capacity":32},{"station_id":"68589226","name":"Westbahnhof S U","short_name":"32036","lat":48.19681,"lon":16.338577,"region_id":"at:49:748","capacity":40},{"station_id":"68589424","name":"Richard-Wagner-Platz","short_name":"32037","lat":48.210054,"lon":16.328049,"region_id":"at:49:748","capacity":24},{"station_id":"68589618","name":"Alser Straße U","short_name":"32038","lat":48.216588,"lon":16.3416,"region_id":"at:49:748","capacity":21},{"station_id":"68589785","name":"Währinger Straße U","short_name":"32039","lat":48.225482,"lon":16.349795,"region_id":"at:49:748","capacity":24},{"station_id":"68590091","name":"Hardtgasse","short_name":"32040","lat":48.236591,"lon":16.348719,"region_id":"at:49:748","capacity":25},{"station_id":"68590324","name":"Handelskai S U","short_name":"32041","lat":48.24201,"lon":16.384797,"region_id":"at:49:748","capacity":34},{"station_id":"68590453","name":"Wallensteinplatz","short_name":"32042","lat":48.229911,"lon":16.371579,"region_id":"at:49:748","capacity":23},{"station_id":"68590734","name":"Brünner Straße S","short_name":"32043","lat":48.267376,"lon":16.403725,"region_id":"at:49:748","capacity":17},{"station_id":"68590949","name":"Floridsdorf S U","short_name":"32044","lat":48.255621,"lon":16.400137,"region_id":"at:49:748","capacity":28},{"station_id":"68591140","name":"Großfeldsiedlung U","short_name":"32045","lat":48.271948,"lon":16.447562,"region_id":"at:49:748","capacity":14},{"station_id":"68591336","name":"Siemensstraße S","short_name":"32046","lat":48.27113,"lon":16.42081,"region_id":"at:49:748","capacity":12},{"station_id":"68592270","name":"Aspernstraße U","short_name":"32047","lat":48.223008,"lon":16.475255,"region_id":"at:49:748","capacity":24},{"station_id":"68592591","name":"Donauspital U","short_name":"32048","lat":48.219878,"lon":16.464588,"region_id":"at:49:748","capacity":22},{"station_id":"68593797","name":"Erzherzog-Karl-Straße S","short_name":"32050","lat":48.229619,"lon":16.45357,"region_id":"at:49:748","capacity":20},{"station_id":"68594003","name":"Hausfeldstraße S U","short_name":"32051","lat":48.233624,"lon":16.486825,"region_id":"at:49:748","capacity":22},{"station_id":"68594176","name":"Kagran U","short_name":"32052","lat":48.243746,"lon":16.433508,"region_id":"at:49:748","capacity":32},{"station_id":"68594313","name":"Maria-Tusch-Straße","short_name":"32053","lat":48.224719,"lon":16.498557,"region_id":"at:49:748","capacity":30},{"station_id":"68594670","name":"Rennbahnweg U","short_name":"32055","lat":48.257535,"lon":16.44959,"region_id":"at:49:748","capacity":20},{"station_id":"68594877","name":"Schüttauplatz","short_name":"32056","lat":48.225856,"lon":16.423761,"region_id":"at:49:748","capacity":16},{"station_id":"68595050","name":"Stadlau U","short_name":"32057","lat":48.21978,"lon":16.44922,"region_id":"at:49:748","capacity":18},{"station_id":"68595226","name":"VIC Kaisermühlen U","short_name":"32058","lat":48.232362,"lon":16.415692,"region_id":"at:49:748","capacity":22},{"station_id":"68595381","name":"Kagraner Platz U","short_name":"32060","lat":48.251071,"lon":16.443794,"region_id":"at:49:748","capacity":14},{"station_id":"68595540","name":"Alterlaa U","short_name":"32059","lat":48.150204,"lon":16.317214,"region_id":"at:49:748","capacity":22},{"station_id":"71501335","name":"Bacherplatz","short_name":"32145","lat":48.188009,"lon":16.355089,"region_id":"at:49:748"},{"station_id":"71502675","name":"Carl-Appel-Straße","short_name":"32147","lat":48.169012,"lon":16.343611,"region_id":"at:49:748","capacity":18},{"station_id":"71502970","name":"Otto-Probst-Platz","short_name":"32148","lat":48.154212,"lon":16.348729,"region_id":"at:49:748"},{"station_id":"71504091","name":"Alaudagasse U","short_name":"32240","lat":48.15271,"lon":16.38247,"region_id":"at:49:748"},{"station_id":"71504398","name":"Svetelskystraße","short_name":"32151","lat":48.154248,"lon":16.465893,"region_id":"at:49:748"},{"station_id":"71504628","name":"Weißenböckstraße","short_name":"32152","lat":48.162067,"lon":16.42849,"region_id":"at:49:748"},{"station_id":"71506305","name":"Zentralfriedhof 2. Tor","short_name":"32155","lat":48.154665,"lon":16.442269,"region_id":"at:49:748","capacity":20},{"station_id":"71506495","name":"Simoningplatz","short_name":"32156","lat":48.179097,"lon":16.420704,"region_id":"at:49:748"},{"station_id":"71506714","name":"Etrichstraße","short_name":"32234","lat":48.148286,"lon":16.462449,"region_id":"at:49:748"},{"station_id":"71507082","name":"Zippererstraße U","short_name":"32033","lat":48.17915,"lon":16.411219,"region_id":"at:49:748"},{"station_id":"71507263","name":"Hetzendorf S","short_name":"32157","lat":48.167527,"lon":16.316119,"region_id":"at:49:748","capacity":12},{"station_id":"71508860","name":"Gatterhölzl","short_name":"32160","lat":48.175409,"lon":16.320534,"region_id":"at:49:748","capacity":14},{"station_id":"71510056","name":"Speising S","short_name":"32217","lat":48.17377,"lon":16.282425,"region_id":"at:49:748"},{"station_id":"71511715","name":"Hasnerstraße / Hofferplatz","short_name":"32140","lat":48.208195,"lon":16.332566,"region_id":"at:49:748","capacity":15},{"station_id":"71511892","name":"Nietzscheplatz","short_name":"32164","lat":48.220453,"lon":16.306123,"region_id":"at:49:748"},{"station_id":"71512025","name":"Wattgasse","short_name":"32165","lat":48.217837,"lon":16.319961,"region_id":"at:49:748","capacity":15},{"station_id":"71512384","name":"Grinzing","short_name":"32167","lat":48.255793,"lon":16.342947,"region_id":"at:49:748","capacity":11},{"station_id":"71512698","name":"Oberdöbling S","short_name":"32169","lat":48.244386,"lon":16.344711,"region_id":"at:49:748","capacity":15},{"station_id":"71513155","name":"Kantnergasse","short_name":"32172","lat":48.277738,"lon":16.410474,"region_id":"at:49:748"},{"station_id":"71513386","name":"Leopoldau S U","short_name":"32173","lat":48.276824,"lon":16.45017,"region_id":"at:49:748"},{"station_id":"71513576","name":"Josef-Baumann-Gasse","short_name":"32174","lat":48.25227,"lon":16.430805,"region_id":"at:49:748","capacity":14},{"station_id":"71513732","name":"Fultonstraße","short_name":"32175","lat":48.252916,"lon":16.413875,"region_id":"at:49:748","capacity":15},{"station_id":"71513842","name":"Hopfengasse","short_name":"32176","lat":48.269651,"lon":16.392036,"region_id":"at:49:748"},{"station_id":"71513967","name":"Jedlesee / Bellgasse","short_name":"32177","lat":48.262909,"lon":16.386918,"region_id":"at:49:748"},{"station_id":"71514129","name":"Jedleseer Friedhof","short_name":"32178","lat":48.270076,"lon":16.384403,"region_id":"at:49:748"},{"station_id":"71514234","name":"Strebersdorf / Edmund-Hawranek-Platz","short_name":"32179","lat":48.291474,"lon":16.386194,"region_id":"at:49:748"},{"station_id":"71514394","name":"Kagraner Anger","short_name":"32182","lat":48.239166,"lon":16.448733,"region_id":"at:49:748"},{"station_id":"71514663","name":"Stavangergasse","short_name":"32184","lat":48.213317,"lon":16.474986,"region_id":"at:49:748"},{"station_id":"71514791","name":"Hans-Steger-Gasse","short_name":"32186","lat":48.224465,"lon":16.456828,"region_id":"at:49:748"},{"station_id":"71514929","name":"Hirschstetten S","short_name":"32187","lat":48.232992,"lon":16.470367,"region_id":"at:49:748","capacity":12},{"station_id":"71515384","name":"Atzgersdorf S","short_name":"32190","lat":48.147137,"lon":16.28842,"region_id":"at:49:748"},{"station_id":"71515681","name":"Siebenhirten U","short_name":"32193","lat":48.129845,"lon":16.310018,"region_id":"at:49:748"},{"station_id":"84043210","name":"Erlaaer Straße U","short_name":"32257","lat":48.142919,"lon":16.316576,"region_id":"at:49:748"},{"station_id":"84043446","name":"Perfektastraße U","short_name":"32258","lat":48.136491,"lon":16.313367,"region_id":"at:49:748"},{"station_id":"84044298","name":"Praterstern Ausstellungsstraße","short_name":"32261","lat":48.21785,"lon":16.395483,"region_id":"at:49:748","capacity":25},{"station_id":"86734914","name":"Muthgasse","short_name":"32263","lat":48.252055,"lon":16.369822,"region_id":"at:49:748","capacity":17},{"station_id":"87590679","name":"Liesing S","short_name":"32260","lat":48.134253,"lon":16.283428,"region_id":"at:49:748","capacity":13},{"station_id":"94505684","name":"Aspern Nord S U","short_name":"32265","lat":48.235615,"lon":16.503965,"region_id":"at:49:748"},{"station_id":"94506147","name":"Seepark","short_name":"32267","lat":48.226593,"lon":16.504396,"region_id":"at:49:748"},{"station_id":"94506325","name":"Seestadt U","short_name":"32268","lat":48.224865,"lon":16.507619,"region_id":"at:49:748","capacity":18},{"station_id":"102158706","name":"Schwedenplatz","short_name":"32063","lat":48.211721,"lon":16.376628,"region_id":"at:49:748","capacity":30},{"station_id":"102178715","name":"Waldmüllerpark","short_name":"32124","lat":48.18136,"lon":16.367618,"region_id":"at:49:748","capacity":12},{"station_id":"103301435","name":"Stubentor U","short_name":"32067","lat":48.206812,"lon":16.380441,"region_id":"at:49:748","capacity":16},{"station_id":"103316881","name":"Landstraße - Wien Mitte S U","short_name":"32081","lat":48.205847,"lon":16.385246,"region_id":"at:49:748","capacity":25},{"station_id":"103317151","name":"Praterstern S U","short_name":"32073","lat":48.218454,"lon":16.390281,"region_id":"at:49:748","capacity":56},{"station_id":"103317402","name":"Rustengasse","short_name":"32223","lat":48.190832,"lon":16.326461,"region_id":"at:49:748","capacity":15},{"station_id":"103317675","name":"Heiligenstadt S U","short_name":"32197","lat":48.248272,"lon":16.36813,"region_id":"at:49:748","capacity":18},{"station_id":"103318155","name":"Hütteldorf  S U","short_name":"32201","lat":48.198076,"lon":16.261813,"region_id":"at:49:748","capacity":33},{"station_id":"103318491","name":"Rathaus U","short_name":"32068","lat":48.211441,"lon":16.356586,"region_id":"at:49:748","capacity":41},{"station_id":"103318689","name":"Hans-Mandl-Berufsschule","short_name":"32131","lat":48.181161,"lon":16.338769,"region_id":"at:49:748","capacity":15},{"station_id":"103319213","name":"Dänenstraße / BOKU","short_name":"32137","lat":48.23737,"lon":16.33448,"region_id":"at:49:748","capacity":50},{"station_id":"103319515","name":"Schloss Schönbrunn","short_name":"32219","lat":48.187201,"lon":16.312659,"region_id":"at:49:748","capacity":36},{"station_id":"103319780","name":"Eslarngasse / Juchgasse","short_name":"32085","lat":48.196678,"lon":16.395204,"region_id":"at:49:748","capacity":22},{"station_id":"103320049","name":"Plößlgasse / Belvedere","short_name":"32083","lat":48.194578,"lon":16.377147,"region_id":"at:49:748","capacity":22},{"station_id":"103320289","name":"Sankt-Elisabeth-Platz","short_name":"32090","lat":48.190903,"lon":16.375826,"region_id":"at:49:748","capacity":23},{"station_id":"103320500","name":"Laudongasse / Schönbornpark","short_name":"32111","lat":48.21339,"lon":16.350695,"region_id":"at:49:748","capacity":25},{"station_id":"103320795","name":"Rossauer Lände U","short_name":"32114","lat":48.222729,"lon":16.367425,"region_id":"at:49:748","capacity":28},{"station_id":"103321191","name":"Lazarettgasse","short_name":"32116","lat":48.219312,"lon":16.352461,"region_id":"at:49:748","capacity":18},{"station_id":"103587074","name":"Edelsinnstraße","short_name":"32129","lat":48.170578,"lon":16.310926,"region_id":"at:49:748","capacity":15},{"station_id":"105011519","name":"Karlsplatz U / TU Wien","short_name":"32088","lat":48.199877,"lon":16.368227,"region_id":"at:49:748","capacity":19},{"station_id":"105539739","name":"Amerlingstraße","short_name":"32241","lat":48.197306,"lon":16.350981,"region_id":"at:49:748","capacity":12},{"station_id":"106776330","name":"Albertgasse","short_name":"32109","lat":48.210475,"lon":16.343998,"region_id":"at:49:748","capacity":28},{"station_id":"107176004","name":"Universitätsring","short_name":"32064","lat":48.21192,"lon":16.360781,"region_id":"at:49:748","capacity":33},{"station_id":"107176172","name":"Herrengasse U","short_name":"32065","lat":48.209724,"lon":16.366685,"region_id":"at:49:748","capacity":24},{"station_id":"107177260","name":"Sensengasse","short_name":"32115","lat":48.220335,"lon":16.35638,"region_id":"at:49:748","capacity":20},{"station_id":"108294385","name":"Belgradplatz","short_name":"32121","lat":48.174228,"lon":16.361368,"region_id":"at:49:748"},{"station_id":"108328961","name":"Rathausplatz / Burgtheater","short_name":"32070","lat":48.209524,"lon":16.360021,"region_id":"at:49:748","capacity":40},{"station_id":"108329236","name":"Arbeitergasse - Gürtel","short_name":"32094","lat":48.18392,"lon":16.345801,"region_id":"at:49:748","capacity":20},{"station_id":"108330011","name":"Bauernfeldplatz / Palais Lichtenstein","short_name":"32117","lat":48.221085,"lon":16.360193,"region_id":"at:49:748","capacity":24},{"station_id":"108330262","name":"Johannesgasse / Stadtpark","short_name":"32069","lat":48.203384,"lon":16.376708,"region_id":"at:49:748","capacity":17},{"station_id":"108575312","name":"Bischof-Faber-Platz","short_name":"32238","lat":48.233868,"lon":16.325099,"region_id":"at:49:748"},{"station_id":"110075845","name":"Am Schöpfwerk U","short_name":"32132","lat":48.160951,"lon":16.324922,"region_id":"at:49:748","capacity":27},{"station_id":"110076109","name":"Alserbachstraße","short_name":"32118","lat":48.225138,"lon":16.354893,"region_id":"at:49:748","capacity":22},{"station_id":"110076578","name":"Petrusgasse","short_name":"32086","lat":48.192988,"lon":16.398459,"region_id":"at:49:748","capacity":26},{"station_id":"110076854","name":"Wassergasse","short_name":"32082","lat":48.199234,"lon":16.394335,"region_id":"at:49:748","capacity":22},{"station_id":"110077149","name":"Löwengasse","short_name":"32084","lat":48.2057,"lon":16.395998,"region_id":"at:49:748","capacity":23},{"station_id":"110077394","name":"Kardinal-Nagl-Platz U","short_name":"32087","lat":48.197069,"lon":16.400874,"region_id":"at:49:748","capacity":16},{"station_id":"110420108","name":"Kärntner Ring","short_name":"32061","lat":48.202161,"lon":16.3713,"region_id":"at:49:748","capacity":17},{"station_id":"110474164","name":"Schottenring U","short_name":"32066","lat":48.215972,"lon":16.372194,"region_id":"at:49:748","capacity":18},{"station_id":"111035034","name":"Strozzigasse","short_name":"32112","lat":48.207744,"lon":16.349122,"region_id":"at:49:748","capacity":22},{"station_id":"112096063","name":"Yppengasse","short_name":"32235","lat":48.214561,"lon":16.335624,"region_id":"at:49:748","capacity":23},{"station_id":"112972587","name":"Stefan-Fadinger-Platz","short_name":"32126","lat":48.168439,"lon":16.354862,"region_id":"at:49:748","capacity":12},{"station_id":"112972732","name":"Brünnlbadgasse","short_name":"32110","lat":48.215262,"lon":16.346523,"region_id":"at:49:748","capacity":11},{"station_id":"113851857","name":"Obere Augartenstraße","short_name":"32080","lat":48.223,"lon":16.374752,"region_id":"at:49:748","capacity":14},{"station_id":"113852160","name":"Gußhausstraße / Argentinierstraße","short_name":"32091","lat":48.197287,"lon":16.371572,"region_id":"at:49:748","capacity":9},{"station_id":"113852535","name":"Marschallplatz","short_name":"32130","lat":48.165635,"lon":16.303146,"region_id":"at:49:748","capacity":10},{"station_id":"113852718","name":"Ober St. Veit U","short_name":"32212","lat":48.192296,"lon":16.274813,"region_id":"at:49:748","capacity":15},{"station_id":"113852877","name":"Auf der Schmelz","short_name":"32134","lat":48.203673,"lon":16.316414,"region_id":"at:49:748","capacity":20},{"station_id":"113853038","name":"Grimmgasse","short_name":"32224","lat":48.186805,"lon":16.327679,"region_id":"at:49:748","capacity":19},{"station_id":"113853202","name":"Parhamerplatz","short_name":"32215","lat":48.216137,"lon":16.328093,"region_id":"at:49:748","capacity":29},{"station_id":"114191041","name":"Kendlerstraße U","short_name":"32272","lat":48.205571,"lon":16.30959,"region_id":"at:49:748","capacity":20},{"station_id":"114192844","name":"Dornerplatz","short_name":"32141","lat":48.221223,"lon":16.33459,"region_id":"at:49:748","capacity":25},{"station_id":"114193118","name":"Hernals S","short_name":"32199","lat":48.22321,"lon":16.315256,"region_id":"at:49:748","capacity":20},{"station_id":"114193703","name":"Schmelzbrücke","short_name":"32220","lat":48.19623,"lon":16.330241,"region_id":"at:49:748","capacity":21},{"station_id":"114194532","name":"Michelbeuern-AKH U","short_name":"32210","lat":48.221804,"lon":16.343735,"region_id":"at:49:748","capacity":35},{"station_id":"114194796","name":"Johann-Nepomuk-Vogl-Platz","short_name":"32203","lat":48.223756,"lon":16.337543,"region_id":"at:49:748","capacity":12},{"station_id":"114195490","name":"Mayerhofgasse","short_name":"32089","lat":48.192488,"lon":16.367014,"region_id":"at:49:748","capacity":12},{"station_id":"114195856","name":"Westbahnstraße / Schottenfeldgasse","short_name":"32108","lat":48.201942,"lon":16.343241,"region_id":"at:49:748","capacity":15},{"station_id":"115734327","name":"Vorgartenstraße U","short_name":"32072","lat":48.223192,"lon":16.399795,"region_id":"at:49:748","capacity":34},{"station_id":"115734503","name":"Krieau U","short_name":"32078","lat":48.214384,"lon":16.414663,"region_id":"at:49:748","capacity":30},{"station_id":"115734657","name":"Ottakring S U","short_name":"32213","lat":48.211841,"lon":16.311806,"region_id":"at:49:748","capacity":38},{"station_id":"115735030","name":"Hartmanngasse ","short_name":"32096","lat":48.187123,"lon":16.363965,"region_id":"at:49:748","capacity":23},{"station_id":"115737941","name":"Nestroyplatz U","short_name":"32074","lat":48.215566,"lon":16.386328,"region_id":"at:49:748"},{"station_id":"116474003","name":"Messe-Prater U","short_name":"32077","lat":48.217295,"lon":16.406163,"region_id":"at:49:748","capacity":44},{"station_id":"117147572","name":"Loquaiplatz","short_name":"32103","lat":48.194597,"lon":16.349121,"region_id":"at:49:748","capacity":19},{"station_id":"117147809","name":"Rosensteingasse","short_name":"32216","lat":48.21955,"lon":16.326586,"region_id":"at:49:748","capacity":21},{"station_id":"117148042","name":"Gumpendorfer Gürtel","short_name":"32100","lat":48.18934,"lon":16.338321,"region_id":"at:49:748","capacity":26},{"station_id":"117148276","name":"Burggasse-Stadthalle U","short_name":"32105","lat":48.203657,"lon":16.337419,"region_id":"at:49:748","capacity":20},{"station_id":"117148509","name":"Urban-Loritz-Platz","short_name":"32106","lat":48.201034,"lon":16.337727,"region_id":"at:49:748","capacity":22},{"station_id":"117148697","name":"Hanusch Krankenhaus","short_name":"32195","lat":48.19853,"lon":16.29393,"region_id":"at:49:748","capacity":18},{"station_id":"117149012","name":"Westbahnhof S U / Gerstnerstraße","short_name":"32230","lat":48.195315,"lon":16.337344,"region_id":"at:49:748","capacity":32},{"station_id":"117149230","name":"Wieningerplatz","short_name":"32233","lat":48.194063,"lon":16.31846,"region_id":"at:49:748","capacity":22},{"station_id":"117329509","name":"Markgraf-Rüdiger Straße","short_name":"32208","lat":48.202473,"lon":16.329897,"region_id":"at:49:748","capacity":28},{"station_id":"117329675","name":"Plunkergasse","short_name":"32222","lat":48.199892,"lon":16.327151,"region_id":"at:49:748","capacity":24},{"station_id":"117329809","name":"Selzergasse","short_name":"32225","lat":48.196802,"lon":16.323095,"region_id":"at:49:748","capacity":22},{"station_id":"117329972","name":"Westbahnhof S U / Felberstraße","short_name":"32231","lat":48.197958,"lon":16.3377,"region_id":"at:49:748","capacity":38},{"station_id":"117632826","name":"Kundratstraße","short_name":"32125","lat":48.176146,"lon":16.355224,"region_id":"at:49:748","capacity":15},{"station_id":"117633648","name":"Arthaberplatz","short_name":"32122","lat":48.173447,"lon":16.371831,"region_id":"at:49:748","capacity":24},{"station_id":"117753032","name":"Karmeliterplatz","short_name":"32075","lat":48.215683,"lon":16.379649,"region_id":"at:49:748","capacity":15},{"station_id":"117753367","name":"Fröbelgasse","short_name":"32144","lat":48.205827,"lon":16.330869,"region_id":"at:49:748","capacity":24},{"station_id":"117753498","name":"Reumannplatz U","short_name":"32123","lat":48.172937,"lon":16.378663,"region_id":"at:49:748","capacity":19},{"station_id":"117753757","name":"Brestelgasse","short_name":"32139","lat":48.214001,"lon":16.330753,"region_id":"at:49:748","capacity":13},{"station_id":"117753925","name":"Thaliastraße U","short_name":"32227","lat":48.207995,"lon":16.337984,"region_id":"at:49:748","capacity":24},{"station_id":"119161164","name":"Nussdorfer Straße U","short_name":"32211","lat":48.231717,"lon":16.353124,"region_id":"at:49:748","capacity":17},{"station_id":"119161712","name":"Elterleinplatz","short_name":"32142","lat":48.217936,"lon":16.332271,"region_id":"at:49:748","capacity":14},{"station_id":"119161997","name":"Canisiusgasse","short_name":"32120","lat":48.229011,"lon":16.354359,"region_id":"at:49:748","capacity":22},{"station_id":"119163086","name":"Meidling S U / Schedifkaplatz","short_name":"32128","lat":48.172862,"lon":16.332105,"region_id":"at:49:748","capacity":10},{"station_id":"119164521","name":"Palffygasse","short_name":"32214","lat":48.217217,"lon":16.337131,"region_id":"at:49:748","capacity":25},{"station_id":"119164831","name":"Gersthof S","short_name":"32194","lat":48.231029,"lon":16.329505,"region_id":"at:49:748","capacity":24},{"station_id":"119165095","name":"Reinprechtsdorfer Brücke","short_name":"32095","lat":48.189633,"lon":16.351143,"region_id":"at:49:748","capacity":20},{"station_id":"119165301","name":"Siebensterngasse","short_name":"32107","lat":48.202223,"lon":16.352486,"region_id":"at:49:748","capacity":18},{"station_id":"119165695","name":"Siebenbrunnenplatz","short_name":"32097","lat":48.184975,"lon":16.352986,"region_id":"at:49:748","capacity":20},{"station_id":"119166015","name":"Rosensteingasse / Blumengasse","short_name":"32136","lat":48.222824,"lon":16.328474,"region_id":"at:49:748","capacity":22},{"station_id":"119166984","name":"Schottenring U /Herminengasse","short_name":"32076","lat":48.217784,"lon":16.373083,"region_id":"at:49:748","capacity":18},{"station_id":"119199656","name":"Josefstädter Straße U","short_name":"32204","lat":48.212106,"lon":16.33912,"region_id":"at:49:748","capacity":22},{"station_id":"119467705","name":"Friedrich-Engels-Platz","short_name":"32143","lat":48.244111,"lon":16.379304,"region_id":"at:49:748","capacity":25},{"station_id":"119468010","name":"Dresdner Straße U","short_name":"32198","lat":48.237487,"lon":16.380363,"region_id":"at:49:748","capacity":26},{"station_id":"119471185","name":"Jägerstraße U","short_name":"32202","lat":48.235062,"lon":16.369919,"region_id":"at:49:748","capacity":22},{"station_id":"119471390","name":"Traisengasse S","short_name":"32228","lat":48.233821,"lon":16.383263,"region_id":"at:49:748","capacity":22},{"station_id":"120664252","name":"Kettenbrückengasse U / Naschmarkt","short_name":"32093","lat":48.196328,"lon":16.357468,"region_id":"at:49:748","capacity":14},{"station_id":"120665264","name":"Aumannplatz","short_name":"32135","lat":48.228561,"lon":16.335125,"region_id":"at:49:748","capacity":22},{"station_id":"120665659","name":"Längenfeldgasse U","short_name":"32127","lat":48.18424,"lon":16.333886,"region_id":"at:49:748","capacity":24},{"station_id":"120666295","name":"Althanstraße","short_name":"32119","lat":48.228936,"lon":16.3596,"region_id":"at:49:748","capacity":20},{"station_id":"120666475","name":"Schottentor U","short_name":"32113","lat":48.214558,"lon":16.361492,"region_id":"at:49:748","capacity":36},{"station_id":"120666709","name":"Neubaugasse U","short_name":"32099","lat":48.198527,"lon":16.35093,"region_id":"at:49:748","capacity":18},{"station_id":"120666888","name":"Museumsquartier U","short_name":"32104","lat":48.202344,"lon":16.361117,"region_id":"at:49:748","capacity":34},{"station_id":"120667066","name":"Johnstrasse U","short_name":"32209","lat":48.19834,"lon":16.318975,"region_id":"at:49:748","capacity":22},{"station_id":"120667255","name":"Turnergasse","short_name":"32229","lat":48.193052,"lon":16.334208,"region_id":"at:49:748","capacity":17},{"station_id":"136959192","name":"Kutschkergasse","short_name":"32206","lat":48.225707,"lon":16.344196,"region_id":"at:49:748","capacity":16},{"station_id":"140182214","name":"Stadion U","short_name":"32079","lat":48.210893,"lon":16.420795,"region_id":"at:49:748","capacity":21},{"station_id":"141457598","name":"Brückengasse","short_name":"32102","lat":48.19126,"lon":16.347918,"region_id":"at:49:748","capacity":22},{"station_id":"167316120","name":"Schuhmeierplatz","short_name":"32221","lat":48.21069,"lon":16.318802,"region_id":"at:49:748","capacity":20},{"station_id":"167316710","name":"Schönbrunn U","short_name":"32236","lat":48.185845,"lon":16.319898,"region_id":"at:49:748","capacity":14},{"station_id":"179031019","name":"Hermesstraße / Oscar-Straus-Park ","short_name":"32264","lat":48.167976,"lon":16.282246,"region_id":"at:49:748","capacity":16},{"station_id":"189949517","name":"Modecenterstraße / The Marks","short_name":"32273","lat":48.184348,"lon":16.413837,"region_id":"at:49:748","capacity":20},{"station_id":"189949978","name":"Am Langen Felde","short_name":"32274","lat":48.250336,"lon":16.450206,"region_id":"at:49:748","capacity":10},{"station_id":"227576666","name":"eLastenräder- Modecenterstraße / The Marks","short_name":"32283","lat":48.184929,"lon":16.413964,"region_id":"at:49:748"},{"station_id":"233846163","name":"Pilgramgasse U","short_name":"32092","lat":48.192945,"lon":16.354936,"region_id":"at:49:748","capacity":15},{"station_id":"282041231","name":"eLastenräder - Am langen Felde","short_name":"32275","lat":48.250224,"lon":16.45065,"region_id":"at:49:748"},{"station_id":"282777229","name":"eLastenräder - Bruno-Marek-Allee","short_name":"32277","lat":48.227914,"lon":16.391516,"region_id":"at:49:748"},{"station_id":"282777705","name":"eLastenräder - Am Tabor","short_name":"32278","lat":48.224598,"lon":16.39209,"region_id":"at:49:748"},{"station_id":"314316648","name":"Purkytgasse ","short_name":"32049","lat":48.15011,"lon":16.33364,"region_id":"at:49:748","capacity":10},{"station_id":"314317046","name":"Neue Donau U","short_name":"32071","lat":48.246414,"lon":16.395676,"region_id":"at:49:748","capacity":35},{"station_id":"314317548","name":"Franz-Josef Bahnhof S","short_name":"32098","lat":48.225991,"lon":16.360327,"region_id":"at:49:748","capacity":19},{"station_id":"314318676","name":"Niederpointenstraße","short_name":"32133","lat":48.20326,"lon":16.275366,"region_id":"at:49:748"},{"station_id":"314319510","name":"Leopoldauer Platz","short_name":"32180","lat":48.263377,"lon":16.440686,"region_id":"at:49:748"},{"station_id":"314319618","name":"ArbeiterInnenstrand","short_name":"32181","lat":48.242946,"lon":16.414669,"region_id":"at:49:748"},{"station_id":"314319771","name":"Gewerbepark Stadlau","short_name":"32185","lat":48.245575,"lon":16.462515,"region_id":"at:49:748"},{"station_id":"314319930","name":"Atzgersdorf Bildungscampus","short_name":"32191","lat":48.153174,"lon":16.301623,"region_id":"at:49:748"},{"station_id":"314320002","name":"Adelheid-Popp-Gasse","short_name":"32192","lat":48.230723,"lon":16.46149,"region_id":"at:49:748"},{"station_id":"314320082","name":"Alte Donau U","short_name":"32196","lat":48.237534,"lon":16.423788,"region_id":"at:49:748"},{"station_id":"314320171","name":"VHS Kulturgarage","short_name":"32200","lat":48.231445,"lon":16.51109,"region_id":"at:49:748"},{"station_id":"315515024","name":"Siebenbrunnenfeldgasse","short_name":"32218","lat":48.18142,"lon":16.352644,"region_id":"at:49:748","capacity":12},{"station_id":"382198275","name":"Technisches Museum","short_name":"32226","lat":48.190316,"lon":16.317929,"region_id":"at:49:748","capacity":25},{"station_id":"382208440","name":"Währinger Park","short_name":"32239","lat":48.232184,"lon":16.346819,"region_id":"at:49:748"},{"station_id":"382209200","name":"Ettenreichgasse / Schulzentrum ","short_name":"32242","lat":48.16717,"lon":16.37359,"region_id":"at:49:748"},{"station_id":"382209656","name":"Wendstattgasse","short_name":"32243","lat":48.14679,"lon":16.391242,"region_id":"at:49:748"},{"station_id":"382209822","name":"Neilreichgasse","short_name":"32244","lat":48.176253,"lon":16.366421,"region_id":"at:49:748"},{"station_id":"382868179","name":"Gutheil-Schoder-Gasse / Badner Bahn","short_name":"32245","lat":48.158662,"lon":16.334796,"region_id":"at:49:748"},{"station_id":"382868302","name":"Neu Leopoldau","short_name":"32246","lat":48.273397,"lon":16.426352,"region_id":"at:49:748"},{"station_id":"382868398","name":"Strebersdorf S","short_name":"32247","lat":48.286421,"lon":16.381676,"region_id":"at:49:748"},{"station_id":"382868474","name":"Rodlergasse","short_name":"32248","lat":48.240775,"lon":16.332898,"region_id":"at:49:748"},{"station_id":"382868775","name":"Nussbaumallee","short_name":"32250","lat":48.181554,"lon":16.42316,"region_id":"at:49:748"},{"station_id":"391402716","name":"Raxstraße","short_name":"32251","lat":48.163234,"lon":16.366437,"region_id":"at:49:748"},{"station_id":"391402906","name":"Wattmanngasse","short_name":"32252","lat":48.171677,"lon":16.291818,"region_id":"at:49:748"},{"station_id":"391403113","name":"Joachimsthaler Platz","short_name":"32253","lat":48.208885,"lon":16.303775,"region_id":"at:49:748"},{"station_id":"391403257","name":"Floridsdorfer Markt","short_name":"32254","lat":48.263052,"lon":16.399257,"region_id":"at:49:748"},{"station_id":"391403425","name":"Nussdorf S","short_name":"32255","lat":48.259495,"lon":16.367553,"region_id":"at:49:748"},{"station_id":"469857109","name":"Bertha-von-Suttner-Gasse","short_name":"32280","lat":48.251355,"lon":16.45281,"region_id":"at:49:748","capacity":6},{"station_id":"484600160","name":"Hauptbahnhof Ost","short_name":"32256","lat":48.183836,"lon":16.379774,"region_id":"at:49:748"},{"station_id":"485064275","name":"FH Technikum","short_name":"32259","lat":48.23937,"lon":16.377182,"region_id":"at:49:748"},{"station_id":"493435055","name":"Hafen Wien","short_name":"32269","lat":48.183217,"lon":16.458423,"region_id":"at:49:748"},{"station_id":"494974455","name":"Hundertwasserhaus","short_name":"32266","lat":48.207691,"lon":16.394724,"region_id":"at:49:748","capacity":12},{"station_id":"494974574","name":"Seestadt U - Lina-Bo-Bardi-Platz","short_name":"32270","lat":48.227143,"lon":16.508852,"region_id":"at:49:748","capacity":20},{"station_id":"494974639","name":"Barbara-Prammer-Allee","short_name":"32276","lat":48.229561,"lon":16.510147,"region_id":"at:49:748"},{"station_id":"494974704","name":"Sonnenallee","short_name":"32284","lat":48.224888,"lon":16.502422,"region_id":"at:49:748"},{"station_id":"495021824","name":"AIT Austrian Institute of Technology / Giefinggasse ","short_name":"32285","lat":48.268033,"lon":16.426886,"region_id":"at:49:748"},{"station_id":"502274432","name":"Hannovermarkt (20)","short_name":"32281","lat":48.23103,"lon":16.368755,"region_id":"at:49:748","capacity":6},{"station_id":"517349484","name":"Blériotgasse","short_name":"32282","lat":48.171395,"lon":16.42565,"region_id":"at:49:748"},{"station_id":"517349595","name":"Vetmed Haupteingang","short_name":"32286","lat":48.25442,"lon":16.431427,"region_id":"at:49:748"},{"station_id":"517349665","name":"Vetmed UB","short_name":"32287","lat":48.253112,"lon":16.430644,"region_id":"at:49:748"},{"station_id":"521340519","name":"Rebhanngasse / Nordbahnstrasse","short_name":"32288","lat":48.227231,"lon":16.388737,"region_id":"at:49:748","capacity":20},{"station_id":"569993947","name":"Nordbahnstrasse","short_name":"32290","lat":48.224594,"lon":16.389338,"region_id":"at:49:748","capacity":20}]}}